Pop_Rank,City,State,Pop_2020,Pop_2010,Pop_2000,Pop_1990,Pop_Growth,UE_2015,UE_2016,UE_2017,UE_2018,UE_2019,Industry_Sector,Percent_Workforce,Percent_vs_National,Quality of Life,Education,Safety,Purchasing Power,Health Care,Cost of Living,Property Price to Income Ratio,Avg Rent 1BR,Avg Mthly Net Income,Rent to Income Ratio,Rent to Income Ratio over 25%,Avg Adj Annual Per Capita Personal Income,lat,lng
33,Tucson,Arizona,542629,520116,486699,405390,1.47,5.8,5.2,4.7,4.6,4.7,Business Support Services,2.9,355.6,164.48,54.26,49.81,83.69,60.77,64.34,4.05,840,3112,27%,Yes,37350,32.1545,-110.8782
5,Phoenix,Arizona,1608139,1445632,1321045,983403,2.49,5.4,4.7,4.3,4.2,4.1,Nondepository Credit Intermediation,1.1,128.4,158.95,51.5,48.27,135.94,67.15,69.37,3.77,1280,4005,32%,Yes,48065,33.5722,-112.0891
37,Mesa,Arizona,504258,439041,396375,288091,2.84,5.2,4.6,4.2,4.1,4,Nondepository Credit Intermediation,1.1,128.4,158.95,51.5,48.27,135.94,67.15,69.37,3.77,1290,4005,32%,Yes,48065,33.4017,-111.718
34,Fresno,California,542107,494665,427652,354202,2.15,11.1,7.6,6.8,5.9,5.7,Software Publishers,4.2,622.3,152.46,28.79,47.23,118.61,79.92,68.25,3.19,1390,3715,37%,Yes,44576,36.7831,-119.7941
48,Bakersfield,California,403455,347483,247057,183959,4,10.3,10.4,9.3,8.1,7.9,Support Activities for Transportation,1.2,99,152.46,49.22,42.86,118.61,54.42,68.25,5.72,1070,4089,26%,Yes,49069,35.3529,-119.0359
10,San Jose,California,1013240,945942,894943,782248,1.3,4.6,3.9,3.3,2.8,2.6,Software Publishers,4.2,622.3,188.09,81.9,54.42,157.39,73.38,73.71,6.38,2420,9507,25%,Yes,114080,37.3019,-121.8486
17,San Francisco,California,873579,805235,776733,723959,0.94,3.7,3.3,2.9,2.4,2.2,Software Publishers,2.8,380.1,156.93,79.48,41.41,133.16,64.56,93.91,7.12,2910,8691,33%,Yes,104291,37.7562,-122.443
45,Oakland,California,440646,390724,399484,372242,0.85,5.9,4.9,4.2,3.5,3.4,Software Publishers,2.8,380.1,163.54,79.48,34.43,111.73,77.4,92.93,7.2,2070,8691,24%,No,104291,37.7903,-122.2165
2,Los Angeles,California,3898747,3792621,3694820,3485398,0.56,7,5.3,4.8,4.6,4.5,Support Activities for Transportation,1.2,99,142.04,49.22,50.25,126.12,61.43,79.19,6.43,2300,5557,41%,Yes,66684,34.1139,-118.4068
42,Long Beach,California,466742,462257,461522,429433,0.42,7.3,5.4,4.9,4.7,4.6,Support Activities for Transportation,1.2,99,142.04,49.22,50.25,126.12,61.43,79.19,6.43,1740,5557,31%,Yes,66684,33.7981,-118.1675
8,San Diego,California,1386932,1307402,1223400,1110549,1.12,5,4.6,3.9,3.3,3,"Research and Development in the Physical, Engineering, and Life Sciences",2.3,290.9,189.38,67.15,63.29,127.94,70.87,75.47,6.33,2280,5311,43%,Yes,63726,32.8312,-117.1225
35,Sacramento,California,524943,466488,407018,369365,1.77,6.4,5.5,4.8,4,3.7,Other Outpatient Care Centers,1.9,188.9,164.71,57.68,51.42,101.43,69.04,77.88,7.75,1630,4904,33%,Yes,58843,38.5667,-121.4683
40,Colorado Springs,Colorado,478961,416427,360890,281140,2.7,4.5,3.6,3.2,3.7,3.2,Wired and Wireless Telecommunications Carriers,2.4,202.6,185.18,71.22,59.24,143.92,60.19,74.08,2.7,1090,6009,18%,No,72102,38.8674,-104.7606
19,Denver,Colorado,715522,600158,554636,467610,2.15,3.7,3.1,2.7,3.1,2.7,Wired and Wireless Telecommunications Carriers,2.4,202.6,166.95,69.45,54.99,129.98,69.41,75.16,4.15,1620,5603,29%,Yes,67236,39.7621,-104.8759
20,Washington,District of Columbia,689545,601723,572059,606900,0.64,6.9,6.1,6.1,5.7,5.5,Computer Systems Design Services,3.6,485.1,163.65,81.7,41.29,121.83,69.62,83.74,5.45,2230,6199,36%,Yes,74385,38.9047,-77.0163
44,Miami,Florida,442241,399457,362470,358548,1.05,5.8,5.1,4.4,3.4,2.3,Support Activities for Transportation,1.5,153.4,154.14,51.94,47.19,93.71,63.54,78,5.32,2500,5081,49%,Yes,60966,25.7839,-80.2102
12,Jacksonville,Florida,949611,821784,735617,635230,2.03,5.9,5,4.3,3.7,3.3,Support Activities for Transportation,1.5,146.5,181.65,52.45,44.36,144.3,69.66,69.51,2.94,1230,4285,29%,Yes,51421,30.3322,-81.6749
38,Atlanta,Georgia,498715,420003,416474,394017,1.19,6.5,5.8,5.1,4.3,3.7,Scheduled Air Transportation,1,141.8,165.8,62.16,36.98,130.67,68.65,76.6,3.81,1700,4546,37%,Yes,54557,33.7627,-84.4224
3,Chicago,Illinois,2746388,2695598,2896016,2783726,-0.07,6.6,6.4,5.4,4.4,4,"Agencies, Brokerages, and Other Insurance Related Activities",1.7,102.2,154.23,60.99,34.05,135.26,65.41,77.06,3.6,1600,5292,30%,Yes,63500,41.8373,-87.6862
15,Indianapolis,Indiana,887642,820445,781870,741952,0.9,5.1,4.5,3.7,3.6,3.3,Civic and Social Organizations,0.5,184.4,170.99,52.99,42.42,121.53,73.25,67.14,2.1,950,4697,20%,No,56360,39.7771,-86.1458
49,Wichita,Kansas,397352,382368,344284,308652,1.27,4.6,4.5,4.1,3.6,3.4,Computer Systems Design Services,2.1,232.5,174.95,50.64,49.36,103.99,59.63,58.1,3.41,650,4697,14%,No,56360,37.6896,-97.3442
29,Louisville,Kentucky,633045,597337,256231,269063,4.37,4.8,4.4,4.4,4,4,Freight Transportation Arrangement,1,325.8,177.11,48.67,51.24,125.17,68.77,64.39,2.26,980,4345,23%,No,52134,38.1663,-85.6485
30,Baltimore,Maryland,585708,620961,651154,736014,-1.14,7.5,6.6,6.3,5.7,5.1,Computer Systems Design Services,2.3,275.9,166.28,65.06,24.96,136.13,77.3,73.56,1.94,1300,5332,24%,No,63988,39.3051,-76.6144
24,Boston,Massachusetts,675647,617594,589141,574283,0.82,4.4,3.5,3.4,3,2.6,Portfolio Management,1,268.9,174.74,76.29,63.09,115.72,75.84,85.47,8.24,2660,6792,39%,Yes,81498,42.3188,-71.0846
27,Detroit,Michigan,639111,713777,951270,1027974,-2.35,11.7,10.7,9.6,8.9,8.8,Transportation Equipment Manufacturing,5.3,372,132.98,51.35,25.19,110.05,62.39,70.68,1.39,1120,4514,25%,No,54172,42.3834,-83.1024
46,Minneapolis,Minnesota,429954,382578,382618,368383,0.78,3.4,3.4,3.1,2.5,2.8,"Navigational, Measuring, Electromedical, and Control Instruments Manufacturing",1.2,251.2,169.2,67.41,45.22,114.68,78.9,79.08,3.78,1200,5352,22%,No,64225,44.9635,-93.2678
36,Kansas City,Missouri,508090,459787,441545,435146,0.78,5.7,4.9,4.3,3.5,3.6,Computer Systems Design Services,2.1,232.5,184.4,59.77,42.26,127.2,75.4,66.07,2.2,980,4584,21%,No,55009,39.1239,-94.5541
39,Omaha,Nebraska,486051,408958,409868,357807,1.54,3.2,3.2,3.2,3.3,3.3,"Direct Life, Health, and Medical Insurance Carriers",2.2,231.9,181.6,59.91,54.16,110.8,75.94,74.65,2.4,900,4584,20%,No,55009,41.2627,-96.0522
26,Las Vegas,Nevada,641903,583756,478434,258295,4.66,7,6,5.5,4.9,4.2,Casino Hotels,18,1517.1,154.66,41.03,44.88,124.83,56.1,68.34,3.47,1270,4067,31%,Yes,48806,36.2333,-115.2654
32,Albuquerque,New Mexico,564559,545852,448607,384736,1.94,5.8,5.7,5.2,4.4,4.4,"Research and Development in the Physical, Engineering, and Life Sciences",5.2,798.5,171.89,57.75,29.34,122.44,64.29,63.44,2.86,860,4373,20%,No,52477,35.1053,-106.6464
1,New York,New York,8804190,8175133,8008278,7322564,0.93,5.7,5.2,4.6,4.2,4,"Securities, Commodity Contracts, and Other Financial Investments and Related Activities",2.5,232,137.97,63.19,52.93,100,62.38,100,9.94,3260,6654,49%,Yes,79844,40.6943,-73.9249
41,Raleigh,North Carolina,467665,403892,276093,207951,4.14,4.6,4.6,4.1,3.7,3.6,Software Publishers,2.1,265.8,207.78,70.96,65.53,144.12,75.64,68.2,3.05,1190,4821,25%,No,57851,35.8325,-78.6435
16,Charlotte,North Carolina,874579,731424,540828,395934,4.04,4.9,4.9,4.4,3.9,3.7,Commercial Banking,4.1,231.4,197.34,56.49,54.7,144.88,74.63,70.06,2.51,1380,4493,31%,Yes,53916,35.208,-80.8304
14,Columbus,Ohio,905748,787033,711470,632910,1.81,4.1,4.2,4.2,3.9,3.6,General Warehousing and Storage,2.6,319.4,201.4,58.1,56.58,151.29,73.95,69.7,4,900,4373,21%,No,52477,39.9862,-82.985
47,Tulsa,Oklahoma,413066,391906,393049,367302,0.59,4,4.5,4.5,3.6,3.4,Support Activities for Mining,0.8,257.3,196.96,44.88,49.05,140.34,68.62,61.44,2.26,880,4373,20%,No,52477,36.1284,-95.9042
22,Oklahoma City,Oklahoma,681054,579999,506132,444719,2.15,3.7,4,3.9,3.2,3.1,Support Activities for Mining,1.7,656.9,196.15,51.43,50.69,127.95,75.78,64.94,2.88,830,4072,20%,No,48860,35.4676,-97.5136
25,Portland,Oregon,652503,583776,529121,437319,2.02,4.7,4.1,3.6,3.5,3.2,Computer and Electronic Product Manufacturing,2.5,264.8,177,67.96,48.52,108.09,73.18,76.83,4.55,1490,4993,30%,Yes,59921,45.5372,-122.65
6,Philadelphia,Pennsylvania,1603797,1526006,1517550,1585577,0.06,7.1,6.7,6.2,5.5,5.6,Portfolio Management,0.9,225,151.12,59.48,37.62,115.61,69.38,79.19,3.96,1410,5550,25%,Yes,66596,40.0077,-75.1339
21,Nashville,Tennessee,689447,601222,545524,510784,1.51,4.4,3.6,2.8,2.7,2.5,"General Freight Trucking, Long-Distance",1.5,149.1,170.5,56.12,53.95,111.46,63.95,73.62,3.65,1640,5057,32%,Yes,60680,36.1715,-86.7843
28,Memphis,Tennessee,633104,646889,650100,610337,0.18,7.1,5.8,4.8,4.6,4.5,"General Freight Trucking, Long-Distance",2.3,273.1,155.77,44.75,25.77,118.23,43.18,63.48,1.19,900,3999,23%,No,47985,35.1046,-89.9773
23,El Paso,Texas,678815,649121,563662,515342,1.39,4.7,4.7,4.4,4.1,3.7,Business Support Services,2.9,355.6,179.47,33.57,67.28,120.95,64.31,55.75,2.89,810,2709,30%,Yes,32510,31.8479,-106.4309
11,Austin,Texas,961855,790390,656562,465622,3.69,3,3.1,3,2.8,2.5,Custom Computer Programming Services,2.7,294.2,198.91,72.94,62.94,158.21,71.04,66.5,3.53,1570,5165,30%,Yes,61977,30.3004,-97.7522
4,Houston,Texas,2304580,2100263,1953631,1630553,1.74,4.3,5,4.9,4.3,3.7,Support Activities for Mining,1.2,450.6,177.62,49.82,36.23,172.98,71.77,63.94,2.04,1210,4908,25%,No,58890,29.7863,-95.3889
9,Dallas,Texas,1304379,1197816,1188580,1006877,1.3,4.1,4,3.9,3.8,3.4,Scheduled Air Transportation,1.3,199.3,192.67,52.76,49.71,170.66,66.2,67.85,2.12,1410,4894,29%,Yes,58725,32.7936,-96.7662
13,Fort Worth,Texas,918915,741206,534694,447619,3.66,4.1,4.2,3.9,3.6,3.4,Scheduled Air Transportation,1.3,199.3,164.47,52.76,56.91,109.43,63.27,72.09,3.87,1220,4894,25%,No,58725,32.7811,-97.3473
50,Arlington,Texas,394266,365438,332969,261721,2.07,4,3.9,3.8,3.6,3.4,Scheduled Air Transportation,1.3,199.3,192.67,52.76,49.71,170.66,66.2,67.85,2.12,1030,4894,21%,No,58725,32.6998,-97.125
7,San Antonio,Texas,1434625,1327407,1144646,935933,2.16,3.7,3.7,3.5,3.3,3.1,Heavy and Civil Engineering Construction,3,306.2,181.72,45.69,51.17,137.67,70.59,62.59,2.1,1060,4058,26%,Yes,48694,29.4658,-98.5253
43,Virginia Beach,Virginia,459470,437994,425257,393069,0.78,4.3,4,3.5,2.9,2.7,Transportation Equipment Manufacturing,4.8,326.3,193.09,59.43,53.5,130.94,73.86,67.75,4.15,1300,4334,30%,Yes,52011,36.7335,-76.0435
18,Seattle,Washington,737015,608660,563374,516259,1.8,3.8,3.5,3.2,2.9,2.5,Software Publishers,4,596.6,189.58,73.76,49.54,145.39,74.01,88.52,4.52,1820,6506,28%,Yes,78073,47.6211,-122.3244
31,Milwaukee,Wisconsin,577222,594833,596974,628088,-0.42,6.6,5.6,4.5,4,4.5,"Direct Life, Health, and Medical Insurance Carriers",2.5,282.1,164.04,56.12,33.06,109.19,66.8,71.56,2.51,950,4871,20%,No,58457,43.0642,-87.9673
